{
  "annecy": [
    {
      "name": "Hôtel Impérial Palace Annecy",
      "slug": "hotel-imperial-palace-annecy",
      "rating": 4.4,
      "reviewCount": 5086,
      "stars": "Hôtel de tourisme 4 étoiles",
      "address": "1 All. de l'Impérial Entrée centrale, 74000 Annecy, France",
      "lat": 45.9037282,
      "lng": 6.1446627
    },
    {
      "name": "Rivage Hôtel & Spa Annecy",
      "slug": "rivage-hotel-spa-annecy",
      "rating": 4.5,
      "reviewCount": 2666,
      "stars": "Hôtel de tourisme 4 étoiles",
      "address": "33 Av. du Petit Port, 74940 Annecy, France",
      "lat": 45.9059788,
      "lng": 6.151998
    },
    {
      "name": "Hôtel Le Pélican",
      "slug": "hotel-le-pelican",
      "rating": 4.6,
      "reviewCount": 1395,
      "stars": "Hôtel de tourisme 4 étoiles",
      "address": "20 Rue des Marquisats, 74000 Annecy, France",
      "lat": 45.895667,
      "lng": 6.1323251
    },
    {
      "name": "Moxy Annecy",
      "slug": "moxy-annecy",
      "rating": 4.1,
      "reviewCount": 3123,
      "stars": "Hôtel de tourisme 3 étoiles",
      "address": "19 Av. du Rhône, 74000 Annecy, France",
      "lat": 45.9002994,
      "lng": 6.1159164
    },
    {
      "name": "ibis Annecy Centre Vieille Ville",
      "slug": "ibis-annecy-centre-vieille-ville",
      "rating": 4.3,
      "reviewCount": 2004,
      "stars": "Hôtel de tourisme 3 étoiles",
      "address": "Ilôt De La Manufacture, 12 Rue de la Gare, 74000 Annecy, France",
      "lat": 45.8983794,
      "lng": 6.1225931
    },
    {
      "name": "Hôtel Les Trésoms, Lake and Spa Resort",
      "slug": "hotel-les-tresoms-lake-and-spa-resort",
      "rating": 4.2,
      "reviewCount": 2007,
      "stars": "Hôtel de tourisme 4 étoiles",
      "address": "15 Bd de la Corniche, 74000 Annecy, France",
      "lat": 45.8896159,
      "lng": 6.13697
    }
  ],
  "biarritz": [
    {
      "name": "Hôtel du Palais Biarritz - The Unbound Collection by Hyatt",
      "slug": "hotel-du-palais-biarritz-the-unbound-collection-by-hyatt",
      "rating": 4.6,
      "reviewCount": 1986,
      "stars": "Hôtel de tourisme 5 étoiles",
      "address": "1 Av. de l'Impératrice, 64200 Biarritz, France",
      "lat": 43.4867958,
      "lng": -1.5562046
    },
    {
      "name": "ALFRED HOTELS - Port Vieux",
      "slug": "alfred-hotels-port-vieux",
      "rating": 4.7,
      "reviewCount": 1096,
      "stars": "Hôtel de tourisme 3 étoiles",
      "address": "10 Rue du Port-Vieux, 64200 Biarritz, France",
      "lat": 43.482222,
      "lng": -1.5662992
    },
    {
      "name": "Hôtel Sofitel Biarritz Le Miramar Thalassa sea & spa",
      "slug": "hotel-sofitel-biarritz-le-miramar-thalassa-sea-spa",
      "rating": 4.2,
      "reviewCount": 1640,
      "stars": "Hôtel de tourisme 5 étoiles",
      "address": "13 Rue Louison Bobet, 64200 Biarritz, France",
      "lat": 43.4878464,
      "lng": -1.5538793
    },
    {
      "name": "Grand Tonic Hôtel & SPA Nuxe",
      "slug": "grand-tonic-hotel-spa-nuxe",
      "rating": 4.2,
      "reviewCount": 1570,
      "stars": "Hôtel de tourisme 4 étoiles",
      "address": "58 Av. Edouard VII, 64200 Biarritz, France",
      "lat": 43.4846626,
      "lng": -1.5567718
    },
    {
      "name": "Regina Experimental Biarritz",
      "slug": "regina-experimental-biarritz",
      "rating": 4.5,
      "reviewCount": 892,
      "stars": "Hôtel de tourisme 5 étoiles",
      "address": "52 Av. de l'Impératrice, 64200 Biarritz, France",
      "lat": 43.4913796,
      "lng": -1.5520148
    },
    {
      "name": "Hôtel Windsor Biarritz",
      "slug": "hotel-windsor-biarritz",
      "rating": 4.3,
      "reviewCount": 952,
      "stars": "Hôtel de tourisme 4 étoiles",
      "address": "11 Av. Edouard VII, 64200 Biarritz, France",
      "lat": 43.4839744,
      "lng": -1.5584569
    }
  ],
  "chambery": [
    {
      "name": "Hôtel des Princes",
      "slug": "hotel-des-princes",
      "rating": 4.5,
      "reviewCount": 1678,
      "stars": "Hôtel de tourisme 3 étoiles",
      "address": "4 Rue de Boigne, 73000 Chambéry, France",
      "lat": 45.566177,
      "lng": 5.921915
    },
    {
      "name": "Hôtel Kyriad Chambéry",
      "slug": "hotel-kyriad-chambery",
      "rating": 4.2,
      "reviewCount": 1512,
      "stars": "Hôtel de tourisme 3 étoiles",
      "address": "371 Rue de la République, 73000 Chambéry, France",
      "lat": 45.5637647,
      "lng": 5.92718
    },
    {
      "name": "Château de Candie",
      "slug": "chateau-de-candie",
      "rating": 4.3,
      "reviewCount": 1194,
      "stars": "Hôtel de tourisme 4 étoiles",
      "address": "533 Rue du Bois de Candie, 73000 Chambéry, France",
      "lat": 45.6021583,
      "lng": 5.8999833
    },
    {
      "name": "B&B HOTEL Chambéry La Cassine",
      "slug": "b-b-hotel-chambery-la-cassine",
      "rating": 3.9,
      "reviewCount": 1606,
      "stars": "Hôtel de tourisme 2 étoiles",
      "address": "204 Rue Dr Vernier, 73000 Chambéry, France",
      "lat": 45.5770347,
      "lng": 5.9201774
    },
    {
      "name": "Alexander Park Chambery",
      "slug": "alexander-park-chambery",
      "rating": 3.9,
      "reviewCount": 1234,
      "stars": "Hôtel de tourisme 4 étoiles",
      "address": "51 Rue Alexander Fleming, 73000 Chambéry, France",
      "lat": 45.596965,
      "lng": 5.8946663
    },
    {
      "name": "Hotel Mercure Chambery Centre",
      "slug": "hotel-mercure-chambery-centre",
      "rating": 4,
      "reviewCount": 926,
      "stars": "Hôtel de tourisme 4 étoiles",
      "address": "183 Pl. de la Gare, 73000 Chambéry, France",
      "lat": 45.5708792,
      "lng": 5.9193405
    }
  ],
  "la-rochelle": [
    {
      "name": "Hôtel Saint Nicolas La Rochelle",
      "slug": "hotel-saint-nicolas-la-rochelle",
      "rating": 4.6,
      "reviewCount": 1764,
      "stars": "Hôtel de tourisme 4 étoiles",
      "address": "13 Rue Sardinerie, 17000 La Rochelle, France",
      "lat": 46.1581112,
      "lng": -1.1489279
    },
    {
      "name": "Hôtel Mercure La Rochelle Vieux-Port",
      "slug": "hotel-mercure-la-rochelle-vieux-port",
      "rating": 4.4,
      "reviewCount": 2124,
      "stars": "Hôtel de tourisme 4 étoiles",
      "address": "Quai Louis Prunier, 17000 La Rochelle, France",
      "lat": 46.1535026,
      "lng": -1.1493542
    },
    {
      "name": "Novotel La Rochelle Centre",
      "slug": "novotel-la-rochelle-centre",
      "rating": 4.4,
      "reviewCount": 1664,
      "stars": "Hôtel de tourisme 4 étoiles",
      "address": "Av. Prte Neuve, 17000 La Rochelle, France",
      "lat": 46.160837,
      "lng": -1.158506
    },
    {
      "name": "Hotel Le Champlain",
      "slug": "hotel-le-champlain",
      "rating": 4.6,
      "reviewCount": 873,
      "stars": "Hôtel de tourisme 4 étoiles",
      "address": "30 Rue Rambaud, 17000 La Rochelle, France",
      "lat": 46.1635742,
      "lng": -1.154299
    },
    {
      "name": "ibis La Rochelle Vieux-Port",
      "slug": "ibis-la-rochelle-vieux-port",
      "rating": 4.3,
      "reviewCount": 1346,
      "stars": "Hôtel de tourisme 3 étoiles",
      "address": "Pl. du Commandant de la Motte Rouge, 17000 La Rochelle, France",
      "lat": 46.1560058,
      "lng": -1.1482801
    },
    {
      "name": "Maisons du Monde Hôtel & Suites - La Rochelle Vieux-Port",
      "slug": "maisons-du-monde-hotel-suites-la-rochelle-vieux-port",
      "rating": 4.3,
      "reviewCount": 1078,
      "stars": "Hôtel de tourisme 4 étoiles",
      "address": "accès PMR, 3 Rue St Jean du Pérot, 4 Pl. de la Chaîne, 17000 La Rochelle, France",
      "lat": 46.156547,
      "lng": -1.154639
    }
  ],
  "saint-malo": [
    {
      "name": "Hôtel Le Nouveau Monde",
      "slug": "hotel-le-nouveau-monde",
      "rating": 4.7,
      "reviewCount": 2646,
      "stars": "Hôtel de tourisme 4 étoiles",
      "address": "64 Chau. du Sillon, 35400 Saint-Malo, France",
      "lat": 48.6534779,
      "lng": -2.0107183
    },
    {
      "name": "Le Grand Hôtel des Thermes",
      "slug": "le-grand-hotel-des-thermes",
      "rating": 4.6,
      "reviewCount": 3075,
      "stars": "Hôtel de tourisme 5 étoiles",
      "address": "Grande Plage du Sillon, 100 Bd Hébert, 35400 Saint-Malo, France",
      "lat": 48.6578848,
      "lng": -1.9995946
    },
    {
      "name": "Hôtel & Spa Oceania Saint-Malo",
      "slug": "hotel-spa-oceania-saint-malo",
      "rating": 4.5,
      "reviewCount": 1750,
      "stars": "Hôtel de tourisme 4 étoiles",
      "address": "2 rue joseph loth, Chau. du Sillon, 35400 Saint-Malo, France",
      "lat": 48.6517639,
      "lng": -2.0185866
    },
    {
      "name": "Hôtel Kyriad Saint Malo Plage Vue Mer",
      "slug": "hotel-kyriad-saint-malo-plage-vue-mer",
      "rating": 4.3,
      "reviewCount": 1933,
      "stars": "Hôtel de tourisme 3 étoiles",
      "address": "49 Chau. du Sillon, 35400 Saint-Malo, France",
      "lat": 48.6554338,
      "lng": -2.0055695
    },
    {
      "name": "Hôtel Ibis Saint-Malo Plage",
      "slug": "hotel-ibis-saint-malo-plage",
      "rating": 4.4,
      "reviewCount": 1463,
      "stars": "Hôtel de tourisme 3 étoiles",
      "address": "58 Chau. du Sillon, 35400 Saint-Malo, France",
      "lat": 48.6531313,
      "lng": -2.0121567
    },
    {
      "name": "Hôtel France et Chateaubriand Saint-Malo",
      "slug": "hotel-france-et-chateaubriand-saint-malo",
      "rating": 4,
      "reviewCount": 2939,
      "stars": "Hôtel de tourisme 3 étoiles",
      "address": "12 Pl. Chateaubriand, 35400 Saint-Malo, France",
      "lat": 48.6513613,
      "lng": -2.0241474
    }
  ],
  "bled": [
    {
      "name": "Rikli Balance Hotel",
      "slug": "rikli-balance-hotel",
      "rating": 4.5,
      "reviewCount": 2586,
      "stars": "Hôtel 4 étoiles",
      "address": "Cankarjeva cesta 4, 4260 Bled, Slovénie",
      "lat": 46.3656826,
      "lng": 14.1093447
    },
    {
      "name": "Hotel Park",
      "slug": "hotel-park",
      "rating": 4.4,
      "reviewCount": 2903,
      "stars": "Hôtel 4 étoiles",
      "address": "Cesta svobode 15, 4260 Bled, Slovénie",
      "lat": 46.3679043,
      "lng": 14.1094117
    },
    {
      "name": "Ribno Alpine Hotel",
      "slug": "ribno-alpine-hotel",
      "rating": 4.5,
      "reviewCount": 1337,
      "stars": "Hôtel 4 étoiles",
      "address": "Izletniška ul. 44, 4260 Bled, Slovénie",
      "lat": 46.346027,
      "lng": 14.121139
    },
    {
      "name": "Hotel Astoria Bled",
      "slug": "hotel-astoria-bled",
      "rating": 4.5,
      "reviewCount": 1311,
      "stars": "Hôtel 3 étoiles",
      "address": "Prešernova cesta 44, 4260 Bled, Slovénie",
      "lat": 46.3720323,
      "lng": 14.1073523
    },
    {
      "name": "Vila Bled",
      "slug": "vila-bled",
      "rating": 4.6,
      "reviewCount": 1095,
      "stars": "Hôtel 4 étoiles",
      "address": "Cesta svobode 18, 4260 Bled, Slovénie",
      "lat": 46.3593434,
      "lng": 14.0935915
    },
    {
      "name": "Grand Hotel Toplice",
      "slug": "grand-hotel-toplice",
      "rating": 4.4,
      "reviewCount": 950,
      "stars": "Hôtel 5 étoiles",
      "address": "Cesta svobode 12, 4260 Bled, Slovénie",
      "lat": 46.3656167,
      "lng": 14.1073222
    }
  ],
  "donegal": [
    {
      "name": "Harvey's Point",
      "slug": "harvey-s-point",
      "rating": 4.8,
      "reviewCount": 2896,
      "stars": "Hôtel 4 étoiles",
      "address": "Lough Eske Rd, Friary, Donegal, F94 E771, Irlande",
      "lat": 54.696086,
      "lng": -8.0532321
    },
    {
      "name": "Lough Eske Castle",
      "slug": "lough-eske-castle",
      "rating": 4.7,
      "reviewCount": 2381,
      "stars": "Hôtel 5 étoiles",
      "address": "Lough Eske Castle Hotel, Lough Eske, Co. Donegal, F94 HX59, Irlande",
      "lat": 54.688067,
      "lng": -8.0659423
    },
    {
      "name": "Mill Park Hotel",
      "slug": "mill-park-hotel",
      "rating": 4.6,
      "reviewCount": 1453,
      "stars": "Hôtel 4 étoiles",
      "address": "The Mullins, Mullans, Co. Donegal, F94 HD99, Irlande",
      "lat": 54.659034,
      "lng": -8.118003
    },
    {
      "name": "The Abbey Hotel Donegal",
      "slug": "the-abbey-hotel-donegal",
      "rating": 4.2,
      "reviewCount": 2205,
      "stars": "Hôtel 3 étoiles",
      "address": "Diamond, Donegal, F94 AP8W, Irlande",
      "lat": 54.6537725,
      "lng": -8.1109437
    },
    {
      "name": "The Central Hotel Donegal",
      "slug": "the-central-hotel-donegal",
      "rating": 4.2,
      "reviewCount": 999,
      "stars": "Hôtel 3 étoiles",
      "address": "The Diamond, Co. Donegal, Irlande",
      "lat": 54.6534613,
      "lng": -8.1110696
    },
    {
      "name": "Donegal Manor",
      "slug": "donegal-manor",
      "rating": 4.8,
      "reviewCount": 114,
      "stars": "Hôtel 4 étoiles",
      "address": "Donegal Manor, Clarcarricknagunn, Donegal Town, Co. Donegal, F94 XV60, Irlande",
      "lat": 54.6613192,
      "lng": -8.0795133
    }
  ],
  "highlands-ecossais": [
    {
      "name": "Loch Ness Clansman Hotel",
      "slug": "loch-ness-clansman-hotel",
      "rating": 4.2,
      "reviewCount": 1994,
      "stars": "Hôtel 3 étoiles",
      "address": "Brackla, Loch Ness-side, Shire, Inverness IV3 8AU, Royaume-Uni",
      "lat": 57.3647212,
      "lng": -4.3928299
    },
    {
      "name": "Highland Hotel",
      "slug": "highland-hotel",
      "rating": 4.5,
      "reviewCount": 734,
      "stars": "Hôtel 3 étoiles",
      "address": "Union Rd, Fort William PH33 6QY, Royaume-Uni",
      "lat": 56.8153915,
      "lng": -5.1121183
    },
    {
      "name": "Inverlochy Castle, an SLH Hotel",
      "slug": "inverlochy-castle-an-slh-hotel",
      "rating": 4.6,
      "reviewCount": 512,
      "stars": "Hôtel 5 étoiles",
      "address": "Torlundy, Fort William PH33 6SN, Royaume-Uni",
      "lat": 56.8443809,
      "lng": -5.05389
    },
    {
      "name": "Kincraig Castle Hotel",
      "slug": "kincraig-castle-hotel",
      "rating": 4.5,
      "reviewCount": 523,
      "stars": "Hôtel 4 étoiles",
      "address": "Near Tomich on A9 By, Invergordon IV18 0LF, Royaume-Uni",
      "lat": 57.7091812,
      "lng": -4.1974939
    },
    {
      "name": "Tulloch Castle Hotel",
      "slug": "tulloch-castle-hotel",
      "rating": 4.2,
      "reviewCount": 662,
      "stars": "Hôtel 4 étoiles",
      "address": "Tulloch Castle Dr, Dingwall, Ross-Shire IV15 9ND, Royaume-Uni",
      "lat": 57.6092377,
      "lng": -4.433294
    },
    {
      "name": "Coylumbridge Resort Hotel",
      "slug": "coylumbridge-resort-hotel",
      "rating": 3.4,
      "reviewCount": 2521,
      "stars": "Hôtel 4 étoiles",
      "address": "Coylumbridge, Aviemore PH22 1QN, Royaume-Uni",
      "lat": 57.174741,
      "lng": -3.80522
    }
  ],
  "north-wales": [
    {
      "name": "Royal Oak Hotel",
      "slug": "royal-oak-hotel",
      "rating": 4.4,
      "reviewCount": 1705,
      "stars": "Hôtel 3 étoiles",
      "address": "Royal Oak Hotel, Holyhead Rd, Betws-y-Coed LL24 0AY, Royaume-Uni",
      "lat": 53.0924168,
      "lng": -3.8036715
    },
    {
      "name": "Castle Hotel",
      "slug": "castle-hotel",
      "rating": 4.4,
      "reviewCount": 1446,
      "stars": "Hôtel 4 étoiles",
      "address": "High St, Conwy LL32 8DB, Royaume-Uni",
      "lat": 53.281287,
      "lng": -3.8290702
    },
    {
      "name": "Waterloo Hotel & Lodge",
      "slug": "waterloo-hotel-lodge",
      "rating": 4.4,
      "reviewCount": 887,
      "stars": "Hôtel 3 étoiles",
      "address": "Betws-y-Coed LL24 0AR, Royaume-Uni",
      "lat": 53.0867737,
      "lng": -3.7979223
    },
    {
      "name": "Château Rhianfa",
      "slug": "chateau-rhianfa",
      "rating": 4.4,
      "reviewCount": 853,
      "stars": "Hôtel 5 étoiles",
      "address": "Beaumaris Rd, Menai Bridge LL59 5NS, Royaume-Uni",
      "lat": 53.2381943,
      "lng": -4.1439732
    },
    {
      "name": "Tyn-y-Coed",
      "slug": "tyn-y-coed",
      "rating": 4.5,
      "reviewCount": 707,
      "stars": "Hôtel 4 étoiles",
      "address": "Capel Curig, Betws-y-Coed LL24 0EE, Royaume-Uni",
      "lat": 53.0987152,
      "lng": -3.8944008
    },
    {
      "name": "Tŷ Gwyn Hotel",
      "slug": "ty-gwyn-hotel",
      "rating": 4.5,
      "reviewCount": 511,
      "stars": "Hôtel 3 étoiles",
      "address": "Betws-y-Coed LL24 0SG, Royaume-Uni",
      "lat": 53.0847134,
      "lng": -3.7942372
    }
  ],
  "tropea": [
    {
      "name": "Aldiana Club Rocca Nettuno Calabria",
      "slug": "aldiana-club-rocca-nettuno-calabria",
      "rating": 4.5,
      "reviewCount": 1595,
      "stars": "Hôtel 4 étoiles",
      "address": "Piazza S.S Annunziata, 89861 Tropea VV, Italie",
      "lat": 38.6720145,
      "lng": 15.8869801
    },
    {
      "name": "Capovaticano Resort Thalasso Spa",
      "slug": "capovaticano-resort-thalasso-spa",
      "rating": 4.5,
      "reviewCount": 1340,
      "stars": "Hôtel 4 étoiles",
      "address": "Località Tono, 89866 San Nicolò di, Ricadi VV, Italie",
      "lat": 38.6289367,
      "lng": 15.8313188
    },
    {
      "name": "Tropis Hotel",
      "slug": "tropis-hotel",
      "rating": 4.3,
      "reviewCount": 881,
      "stars": "Hôtel 4 étoiles",
      "address": "CONTRADA FONTANA NUOVA, SNC, 89861 Tropea VV, Italie",
      "lat": 38.6730344,
      "lng": 15.8971354
    },
    {
      "name": "La Dolce Vita in Tropea",
      "slug": "la-dolce-vita-in-tropea",
      "rating": 4.9,
      "reviewCount": 311,
      "stars": "Hôtel 4 étoiles",
      "address": "Largo Migliarese, 3, 89861 Tropea VV, Italie",
      "lat": 38.6794972,
      "lng": 15.8972768
    },
    {
      "name": "Hotel Colomba D'Oro",
      "slug": "hotel-colomba-d-oro",
      "rating": 4.6,
      "reviewCount": 364,
      "stars": "Hôtel 4 étoiles",
      "address": "Via Vittorio Veneto, 59, 89861 Tropea VV, Italie",
      "lat": 38.6751237,
      "lng": 15.8960428
    },
    {
      "name": "Villa Paola",
      "slug": "villa-paola",
      "rating": 4.8,
      "reviewCount": 212,
      "stars": "Hôtel 5 étoiles",
      "address": "Contrada Paola, 89861 Tropea VV, Italie",
      "lat": 38.6770085,
      "lng": 15.9062034
    }
  ]
}
